Resource Name,County,National Register Date,National Register Number,Longitude,Latitude,Georeference
School 13,Erie,03/15/2005,03NR05199,-78.8699293056,42.8890760013,POINT (-78.8699293056 42.8890760013)
Peterboro Street Elementary School,Madison,05/23/1986,90NR01433,-75.7494618823,43.0817245412,POINT (-75.7494618823 43.0817245412)
Buffalo Public School #57 (PS57),Erie,07/27/2018,18NR00030,-78.8349099386,42.8929527986,POINT (-78.8349099386 42.8929527986)
North Main Street School,Rockland,02/28/2008,07NR05728,-74.0435512718,41.1208513465,POINT (-74.0435512718 41.1208513465)
Gardiner Schoolhouse,Ulster,11/22/2000,00NR01691,-74.1488802705,41.6785148858,POINT (-74.1488802705 41.6785148858)
Public School 66,Queens,08/28/2003,03NR05092,-73.8461378526,40.6979493896,POINT (-73.8461378526 40.6979493896)
Greenwich District School No. 11,Washington,12/30/2020,20NR00097,-73.4497175538,43.1005258628,POINT (-73.4497175538 43.1005258628)
Gaines District #2 Cobblestone School House,Orleans,06/12/2017,15NR00131,-78.2238711635,43.2570931821,POINT (-78.2238711635 43.2570931821)
Williamsville Junior and Senior High School,Erie,05/12/2008,07NR05811,-78.7314571127,42.9671799543,POINT (-78.7314571127 42.9671799543)
Alexander Classical School,Genesee,10/25/1973,90NR00532,-78.259361969,42.902195871,POINT (-78.259361969 42.902195871)
Tuckahoe High School,Westchester,02/24/2010,07NR05831,-73.8120539858,40.9430925941,POINT (-73.8120539858 40.9430925941)
West Hill School,Montgomery,04/11/2002,02NR01895,-74.5733847626,42.9047837106,POINT (-74.5733847626 42.9047837106)
Clarksville Elementary School,Albany,07/03/2008,08NR05851,-73.9543347731,42.5774645786,POINT (-73.9543347731 42.5774645786)
Public School No. 13,Westchester,04/18/2007,05NR05541,-73.8899449071,40.9159203661,POINT (-73.8899449071 40.9159203661)
Whitney Museum of American Art (NY Studio School),New York,01/01/1993,93NR00506,-73.9972360141,40.7323855482,POINT (-73.9972360141 40.7323855482)
Jerusalem District No. 5 Schoolhouse,Nassau,03/01/1996,95NR00860,-73.5070937819,40.7020123856,POINT (-73.5070937819 40.7020123856)
St. James Chapel and Bard Infant School,Dutchess,08/19/1993,90NR02905,-73.9350655375,41.7911942919,POINT (-73.9350655375 41.7911942919)
District No. 10 Schoolhouse,Niagara,12/01/2000,00NR01684,-78.4885524084,43.2815577286,POINT (-78.4885524084 43.2815577286)
Brandywine Avenue School,Schenectady,12/09/1999,99NR01518,-73.9238922938,42.8024673832,POINT (-73.9238922938 42.8024673832)
Lancaster District School No. 6,Erie,11/18/2008,08NR05898,-78.6401865605,42.8814348216,POINT (-78.6401865605 42.8814348216)
School No. 7,Chautauqua,03/05/1992,91NR00271,-79.3167644271,42.4946849696,POINT (-79.3167644271 42.4946849696)
Brockport Rural High School [A.D. Oliver School],Monroe,11/10/2011,10NR06193,-77.9472630504,43.2070467693,POINT (-77.9472630504 43.2070467693)
District School No. 20,Jefferson,10/18/1989,90NR01137,-76.1086289905,43.9263762735,POINT (-76.1086289905 43.9263762735)
Southwood Two-Teacher School,Onondaga,04/06/2000,00NR01587,-76.109293928,42.995295845,POINT (-76.109293928 42.995295845)
East Irvington School,Westchester,10/06/1983,90NR02437,-73.8476864906,41.046545023,POINT (-73.8476864906 41.046545023)
Mycenae Schoolhouse,Onondaga,08/11/1983,90NR02089,-75.9330374687,43.0468789945,POINT (-75.9330374687 43.0468789945)
Huguenot Schoolhouse (District School No. 3),Orange,08/21/1997,97NR01237,-74.6321537235,41.4197137072,POINT (-74.6321537235 41.4197137072)
Boys' High School,Kings,02/25/1982,90NR01264,-73.9478766786,40.6846628806,POINT (-73.9478766786 40.6846628806)
Camillus Union Free School,Onondaga,05/28/1991,91NR03345,-76.3058031237,43.0404458658,POINT (-76.3058031237 43.0404458658)
Thomas Indian School,Erie,01/25/1973,90NR01204,-78.9961842435,42.5395257503,POINT (-78.9961842435 42.5395257503)
Garfield School,Rensselaer,06/09/1988,90NR00959,-73.5977192881,42.7305076701,POINT (-73.5977192881 42.7305076701)
Glen Haven District No. 4 School and Public Library,Cortland,05/23/1997,97NR01181,-76.2673318572,42.7608473498,POINT (-76.2673318572 42.7608473498)
Hebron District School No. 16,Washington,04/16/2012,11NR06280,-73.2864376684,43.2624076439,POINT (-73.2864376684 43.2624076439)
Kibler High School,Erie,01/15/1999,99NR01438,-78.8806457003,43.0116838659,POINT (-78.8806457003 43.0116838659)
District School No. 14,Ulster,02/21/1997,97NR01152,-74.4793243054,42.1349320882,POINT (-74.4793243054 42.1349320882)
Public School 9,New York,08/03/1987,90NR03038,-73.9792207233,40.7863398786,POINT (-73.9792207233 40.7863398786)
Union Free School,Dutchess,02/27/1987,90NR00562,-73.945032032,41.5890238034,POINT (-73.945032032 41.5890238034)
St. Mary's School,Nassau,11/14/1978,91NR00222,-73.6405969744,40.7203604994,POINT (-73.6405969744 40.7203604994)
Bald Hill Schoolhouse,Suffolk,07/21/1988,90NR01783,-73.0427629084,40.8354100934,POINT (-73.0427629084 40.8354100934)
St. Anthony Convent & School,Onondaga,01/31/2019,18NR00067,-76.1511861498,43.0749795269,POINT (-76.1511861498 43.0749795269)
Java School No. 1,Wyoming,06/21/2001,00NR01707,-78.4362483567,42.6739919884,POINT (-78.4362483567 42.6739919884)
Morristown Schoolhouse,St. Lawrence,09/02/1982,90NR02581,-75.6461051698,44.5850208038,POINT (-75.6461051698 44.5850208038)
Grenadier Island Schoolhouse,Jefferson,11/21/2012,12NR06378,-76.3542750702,44.0481006717,POINT (-76.3542750702 44.0481006717)
Central Technical High School,Onondaga,04/09/1981,90NR02118,-76.1502588773,43.0423108448,POINT (-76.1502588773 43.0423108448)
Wethersfield Stone Schoolhouse,Oneida,09/07/2005,05NR05437,-75.2201780158,43.258264814,POINT (-75.2201780158 43.258264814)
Philip Livingston Junior High School (former),Albany,08/18/2014,14NR06562,-73.757977373,42.6685483077,POINT (-73.757977373 42.6685483077)
Hayt's Corners Chapel and Schoolhouse,Tompkins,12/22/2005,05NR05463,-76.5422084918,42.4678923847,POINT (-76.5422084918 42.4678923847)
Old School Baptist Church of Halcottsville,Delaware,07/08/1999,99NR01474,-74.6009933923,42.206857953,POINT (-74.6009933923 42.206857953)
Snyderville Schoolhouse,Columbia,07/28/2004,03NR05161,-73.7535820798,42.0820928641,POINT (-73.7535820798 42.0820928641)
George Washington School,Chemung,01/11/2017,16NR00080,-76.8212061945,42.0976336772,POINT (-76.8212061945 42.0976336772)
School No. 1,Rensselaer,12/07/2018,18NR00069,-73.6823889253,42.7468571823,POINT (-73.6823889253 42.7468571823)
Guy Park Avenue School (Walter Elwood Museum),Montgomery,06/02/1995,95NR00809,-74.2087097806,42.9498436981,POINT (-74.2087097806 42.9498436981)
Public School 71K,Kings,11/04/1982,90NR01331,-73.956547303,40.7017351249,POINT (-73.956547303 40.7017351249)
School House #10,Cattaraugus,10/01/2010,10NR06128,-78.4347397287,42.0750285063,POINT (-78.4347397287 42.0750285063)
Stone Arabia School (Number 6),Onondaga,04/12/2007,06NR05672,-76.0746646949,43.1777482137,POINT (-76.0746646949 43.1777482137)
East High School,Monroe,06/30/1983,90NR01474,-77.5913900149,43.1592699545,POINT (-77.5913900149 43.1592699545)
Lenox District No. 4 Schoolhouse,Madison,02/23/1996,96NR00926,-75.7422291417,43.0420534418,POINT (-75.7422291417 43.0420534418)
New Lebanon District No. 8 School,Columbia,04/22/2021,20NR00128,-73.3949273221,42.464622399,POINT (-73.3949273221 42.464622399)
Groton High School,Tompkins,07/24/1992,92NR00307,-76.3663356068,42.5879740021,POINT (-76.3663356068 42.5879740021)
Saints Cyril and Methodius Slovak Roman Catholic School,Broome,03/01/2007,06NR05656,-75.9244642539,42.1060002358,POINT (-75.9244642539 42.1060002358)
School No. 6,Livingston,08/31/1989,90NR01368,-77.6452877237,42.8769333952,POINT (-77.6452877237 42.8769333952)
Public School 15,Bronx,12/10/1981,90NR00070,-73.8306180969,40.8909442375,POINT (-73.8306180969 40.8909442375)
District School #5,Cayuga,10/10/2002,02NR04948,-76.6465378515,43.3237877972,POINT (-76.6465378515 43.3237877972)
Second Old School Baptist Church of Roxbury,Delaware,07/28/1999,99NR01475,-74.5957011106,42.2644706817,POINT (-74.5957011106 42.2644706817)
Public School 35,New York,10/27/1980,90NR00885,-73.9658990768,40.7548845394,POINT (-73.9658990768 40.7548845394)
West High School,Cayuga,08/18/2017,15NR00143,-76.5787697801,42.926685085,POINT (-76.5787697801 42.926685085)
Nott Street School,Schenectady,12/29/2011,11NR06253,-73.9310740289,42.8210165074,POINT (-73.9310740289 42.8210165074)
Hamden District 1 School,Delaware,12/03/2019,18NR00070,-75.0229411839,42.1681742945,POINT (-75.0229411839 42.1681742945)
St. Paul's School,Nassau,11/14/1978,91NR00239,-73.6496621173,40.7265147162,POINT (-73.6496621173 40.7265147162)
Potsdam State Normal School; 2 building complex,St. Lawrence,02/23/2015,14NR06609,-74.9809821058,44.6692376992,POINT (-74.9809821058 44.6692376992)
Buffalo Public School #51 (PS 51),Erie,06/03/2019,18NR00104,-78.9027199209,42.9414033491,POINT (-78.9027199209 42.9414033491)
Jeffersonville School,Sullivan,04/28/1988,90NR01055,-74.9398643261,41.7798249075,POINT (-74.9398643261 41.7798249075)
Grindstone Island Upper Schoolhouse,Jefferson,08/14/2012,12NR06362,-76.1291919852,44.2699672488,POINT (-76.1291919852 44.2699672488)
District School No. 7,Albany,05/16/1996,96NR00973,-73.8999359697,42.4737438524,POINT (-73.8999359697 42.4737438524)
Flushing High School,Queens,02/10/1992,91NR00099,-73.826828129,40.7648810901,POINT (-73.826828129 40.7648810901)
District School No. 9 (The Old Stone Schoolhouse),Orange,09/15/1988,90NR02294,-74.3495210706,41.3764344014,POINT (-74.3495210706 41.3764344014)
Euclid Avenue School,Chautauqua,03/21/1985,90NR00111,-79.2379593487,42.1084358426,POINT (-79.2379593487 42.1084358426)
"Ingalls, J. Ralph, School (Maine Central School)",Broome,01/07/1998,97NR01172,-76.0639753502,42.1939932117,POINT (-76.0639753502 42.1939932117)
Carter Street Schoolhouse No. 21,Jefferson,06/28/1996,96NR00951,-75.9530023767,44.1194088648,POINT (-75.9530023767 44.1194088648)
Stony Point District School No. 4,Rockland,01/04/2012,11NR06284,-74.0215078795,41.2379111023,POINT (-74.0215078795 41.2379111023)
Rock Valley School,Delaware,05/12/2008,07NR05821,-75.0849461612,41.8905507142,POINT (-75.0849461612 41.8905507142)
"Dewey, Chester, School No. 14",Monroe,10/04/1985,90NR01489,-77.5974630143,43.160201075,POINT (-77.5974630143 43.160201075)
West End Collegiate Church and Collegiate School,New York,05/06/1980,90NR00702,-73.9815569907,40.7830434523,POINT (-73.9815569907 40.7830434523)
Potter Hollow District #19 School,Albany,01/04/2012,11NR06210,-74.226793956,42.4235325201,POINT (-74.226793956 42.4235325201)
Former Niagara Falls High School,Niagara,01/24/2002,01NR01801,-79.0473805197,43.0941667518,POINT (-79.0473805197 43.0941667518)
Cobblestone House at 1145 Old School House Road,Seneca,09/20/2009,07NR05750,-76.7748637017,42.9689410474,POINT (-76.7748637017 42.9689410474)
Ferndale School,Sullivan,01/05/2005,04NR05243,-74.7410656805,41.7767532664,POINT (-74.7410656805 41.7767532664)
West Newark Schoolhouse,Tioga,03/16/1998,98NR01305,-76.2362692492,42.241723998,POINT (-76.2362692492 42.241723998)
Public School 39,Kings,04/17/1980,90NR01272,-73.9829123985,40.6686535578,POINT (-73.9829123985 40.6686535578)
Dryden District School No. 5,Tompkins,11/04/1994,94NR00740,-76.4310245499,42.4741539862,POINT (-76.4310245499 42.4741539862)
Fourth Ward School,Seneca,03/19/1986,90NR02214,-76.7890297062,42.9106638554,POINT (-76.7890297062 42.9106638554)
Haskell School,Rensselaer,09/19/2003,02NR04979,-73.6791158597,42.7576684411,POINT (-73.6791158597 42.7576684411)
Schoolhouse No. 5,Delaware,06/01/2011,11NR06216,-75.0855006175,42.2679073389,POINT (-75.0855006175 42.2679073389)
Fourteenth Ward Industrial School,New York,01/27/1983,90NR00612,-73.9944257767,40.7235482043,POINT (-73.9944257767 40.7235482043)
Newtonville School,Albany,09/22/2000,00NR01646,-73.7553485656,42.7210555754,POINT (-73.7553485656 42.7210555754)
New Suffolk School,Suffolk,09/12/2002,01NR01781,-72.4751839135,40.9927367232,POINT (-72.4751839135 40.9927367232)
Ceres School,Allegany,12/07/2010,10NR06143,-78.2727412595,41.999253361,POINT (-78.2727412595 41.999253361)
Public School #60 (PS 60),Erie,08/18/2014,14NR06556,-78.9033452301,42.9514004084,POINT (-78.9033452301 42.9514004084)
Northrup Hill School District 10,Steuben,02/12/1999,99NR01435,-77.3755641938,42.147796859,POINT (-77.3755641938 42.147796859)
Borodino District School #8,Onondaga,01/04/2007,06NR05596,-76.3368878742,42.86095247,POINT (-76.3368878742 42.86095247)
Pompey Centre District No. 10 Schoolhouse,Onondaga,08/06/1998,98NR01361,-75.9492023612,42.9236409165,POINT (-75.9492023612 42.9236409165)
Vrooman Avenue School,Montgomery,06/30/1983,90NR01544,-74.174491179,42.9356809101,POINT (-74.174491179 42.9356809101)
Waverly Junior/Senior High School,Tioga,11/07/1997,97NR01266,-76.5377097504,42.0038227823,POINT (-76.5377097504 42.0038227823)
Montour Falls Union School,Schuyler,11/28/2012,12NR06352,-76.8434061532,42.3496792588,POINT (-76.8434061532 42.3496792588)
Mexico Academy and Central School,Oswego,11/14/1991,91NR00025,-76.2344683858,43.4605346318,POINT (-76.2344683858 43.4605346318)
North Star School District #11,Monroe,09/10/2014,14NR06564,-77.8599178206,43.3188415092,POINT (-77.8599178206 43.3188415092)
Lafayette High School,Erie,12/03/1980,90NR01242,-78.8847167277,42.920757038,POINT (-78.8847167277 42.920757038)
Forks in the Road Schoolhouse,Schoharie,07/06/2005,05NR05431,-74.56294716,42.4119105467,POINT (-74.56294716 42.4119105467)
District School 2,Chenango,02/25/2004,03NR05140,-75.5978430545,42.3147237794,POINT (-75.5978430545 42.3147237794)
St. Theresa's Roman Catholic Church and School Complex,Erie,09/06/2016,15NR00010,-78.8119554678,42.8580830978,POINT (-78.8119554678 42.8580830978)
Franklin School,Schenectady,06/30/1983,90NR02662,-73.9224173688,42.8228264197,POINT (-73.9224173688 42.8228264197)
Knox District School #5,Albany,05/19/2005,04NR05391,-74.0449794485,42.6603746363,POINT (-74.0449794485 42.6603746363)
Glens Falls High School,Warren,09/29/1984,90NR02712,-73.6510181288,43.3139577288,POINT (-73.6510181288 43.3139577288)
Nelliston School,Montgomery,12/31/2002,02NR04989,-74.6132947304,42.9355492457,POINT (-74.6132947304 42.9355492457)
The Annunciation School,Erie,12/05/2008,08NR05896,-78.888448492,42.9198471273,POINT (-78.888448492 42.9198471273)
Olive and Hurley Old School Baptist Church,Ulster,11/19/1998,98NR01401,-74.2121694281,41.9736131871,POINT (-74.2121694281 41.9736131871)
Public School 11,Bronx,09/08/1983,90NR00054,-73.9259429176,40.839779253,POINT (-73.9259429176 40.839779253)
Rippleton Schoolhouse,Madison,08/06/1998,98NR01341,-75.8630149852,42.9208380909,POINT (-75.8630149852 42.9208380909)
Ticonderoga High School,Essex,11/15/1988,90NR00490,-73.4274679973,43.8428478253,POINT (-73.4274679973 43.8428478253)
Buffalo Public School No. 63,Erie,08/22/2016,16NR00049,-78.8246899161,42.9474388351,POINT (-78.8246899161 42.9474388351)
Adelaide Avenue School,Ontario,04/26/1984,90NR01995,-77.2860925952,42.883717359,POINT (-77.2860925952 42.883717359)
Public School 111 and Public School 9 Annex,Kings,12/14/1981,90NR01347,-73.9693204507,40.6761604023,POINT (-73.9693204507 40.6761604023)
Carley's Mills Schoolhouse,Oswego,01/05/2005,02NR04949,-76.1166190136,43.3735723739,POINT (-76.1166190136 43.3735723739)
Central School,Essex,11/15/1988,90NR00479,-73.4232925344,43.8447819693,POINT (-73.4232925344 43.8447819693)
Delphi Village School,Onondaga,05/22/1986,90NR02092,-75.9147331494,42.876421617,POINT (-75.9147331494 42.876421617)
Middlefield District No. 1 School,Otsego,08/13/1987,90NR02173,-74.841686731,42.69000881,POINT (-74.841686731 42.69000881)
"Willard, Emma, School",Rensselaer,08/30/1979,90NR00992,-73.661509376,42.7131136042,POINT (-73.661509376 42.7131136042)
Pearl Street Schoolhouse,Ulster,09/26/1983,90NR01090,-74.2767351106,41.6557618664,POINT (-74.2767351106 41.6557618664)
Public School 7,Kings,11/03/1983,90NR01329,-73.9854033684,40.7017705014,POINT (-73.9854033684 40.7017705014)
Garrison Union Free School,Putnam,11/23/1982,90NR02367,-73.9376645747,41.3808320882,POINT (-73.9376645747 41.3808320882)
Swan River Schoolhouse,Suffolk,08/18/2017,15NR00144,-72.9886597253,40.7645531394,POINT (-72.9886597253 40.7645531394)
Springfield Center Elementary School,Otsego,08/24/2011,11NR06239,-74.8740530774,42.8305872398,POINT (-74.8740530774 42.8305872398)
Morris High School Historic District,Bronx,09/15/1983,90NR00057,-73.9034146121,40.8274725983,POINT (-73.9034146121 40.8274725983)
Public School 160,New York,,98NR01358,-73.9864377092,40.7191016044,POINT (-73.9864377092 40.7191016044)
"Schoolcraft, John, House",Albany,11/10/1982,90NR01664,-73.9095006532,42.703775251,POINT (-73.9095006532 42.703775251)
Lebanon Springs Union Free School,Columbia,11/21/1991,91NR00086,-73.3823592633,42.4743707055,POINT (-73.3823592633 42.4743707055)
Hyde Park Elementary School,Dutchess,09/02/1993,90NR02895,-73.9361618801,41.7869181811,POINT (-73.9361618801 41.7869181811)
Overackers Corners School,Yates,08/24/1994,94NR00688,-77.2798974941,42.739300041,POINT (-77.2798974941 42.739300041)
Public School 65K,Kings,12/10/1981,90NR01346,-73.8772584252,40.6834083033,POINT (-73.8772584252 40.6834083033)
Saltonstall Street School,Ontario,04/26/1984,90NR02004,-77.2759423449,42.8842935634,POINT (-77.2759423449 42.8842935634)
Common School No. 10,Ulster,09/15/1988,90NR01076,-74.323243613,41.8775679118,POINT (-74.323243613 41.8775679118)
Amboy District No. 2 Schoolhouse,Oswego,12/01/2020,19NR00109,-75.9034017088,43.3697472624,POINT (-75.9034017088 43.3697472624)
East Springfield Union School,Otsego,04/26/1996,96NR00981,-74.8126423203,42.8301693009,POINT (-74.8126423203 42.8301693009)
Dresden District School No. 2,Washington,04/05/2019,18NR00094,-73.4785186189,43.648133583,POINT (-73.4785186189 43.648133583)
Buttermilk Flat Schoolhouse No. 22,Jefferson,06/28/1996,96NR00959,-75.9500440907,44.1719621215,POINT (-75.9500440907 44.1719621215)
Van Rensselaer High School,Rensselaer,08/14/2012,12NR06368,-73.7270318335,42.6607963586,POINT (-73.7270318335 42.6607963586)
North Bloomfield School,Livingston,05/28/1981,90NR01356,-77.5781957846,42.9372662354,POINT (-77.5781957846 42.9372662354)
Payne Avenue High School,Niagara,03/07/2019,18NR00083,-78.8717359407,43.0404655815,POINT (-78.8717359407 43.0404655815)
Violet Avenue School,Dutchess,08/18/2014,14NR06549,-73.9116922182,41.727711314,POINT (-73.9116922182 41.727711314)
Buffalo Public School #44 (PS 44),Erie,07/27/2018,18NR00032,-78.8241829986,42.8948135164,POINT (-78.8241829986 42.8948135164)
District School No. 5,Steuben,03/21/2001,01NR01734,-77.1324313991,42.2235432879,POINT (-77.1324313991 42.2235432879)
Hankins District No. 1 Schoolhouse,Sullivan,02/04/2000,00NR01600,-75.0828874004,41.8161586376,POINT (-75.0828874004 41.8161586376)
Public School 109,New York,09/22/2000,00NR01656,-73.9466474167,40.7870108308,POINT (-73.9466474167 40.7870108308)
Glenville District No. 5 Schoolhouse,Schenectady,05/19/2014,13NR06506,-74.0789072546,42.939766071,POINT (-74.0789072546 42.939766071)
"Irving, Washington, High School",Westchester,04/26/1984,90NR02524,-73.8572249559,41.0770238251,POINT (-73.8572249559 41.0770238251)
South Junior High School,Niagara,06/07/2016,16NR00008,-79.0460651544,43.0924926425,POINT (-79.0460651544 43.0924926425)
St. Columba School,Schenectady,12/01/2015,15NR00046,-73.9367369995,42.8050699001,POINT (-73.9367369995 42.8050699001)
St. Patrick's Parochial School & Convent,Chemung,11/05/1992,91NR03346,-76.8108256638,42.0933066588,POINT (-76.8108256638 42.0933066588)
Indian Rock Schoolhouse,Dutchess,04/01/2002,02NR01896,-73.5462283887,41.8614814565,POINT (-73.5462283887 41.8614814565)
Public School 77 (PS77),Erie,07/24/2017,15NR00140,-78.8920027815,42.909272588,POINT (-78.8920027815 42.909272588)
First Old School Baptist Church of Roxbury and Vega Cemetery,Delaware,04/12/1996,96NR00935,-74.5357230784,42.2496144878,POINT (-74.5357230784 42.2496144878)
Franklin Delano Roosevelt High School,Dutchess,01/07/2011,10NR06164,-73.9061449192,41.7725581004,POINT (-73.9061449192 41.7725581004)
New York School of Applied Design,New York,12/16/1982,90NR00943,-73.981723453,40.7441011005,POINT (-73.981723453 40.7441011005)
Deveaux School Historic District,Niagara,06/05/1974,90NR01964,-79.0587394919,43.119387891,POINT (-79.0587394919 43.119387891)
Taylor Center Methodist Episcopal Church and District #3 School,Cortland,07/30/2010,09NR06013,-75.9256744005,42.6166001458,POINT (-75.9256744005 42.6166001458)
Lyon Street School,Clinton,05/22/2013,13NR06439,-73.4595218674,44.6068634048,POINT (-73.4595218674 44.6068634048)
Rochester City School #24,Monroe,09/15/1983,90NR01482,-77.6002132371,43.1367233166,POINT (-77.6002132371 43.1367233166)
Public School No. 10,Rensselaer,11/04/1994,94NR00735,-73.6924724111,42.7228376448,POINT (-73.6924724111 42.7228376448)
Nichols High School,Tioga,05/16/1996,96NR00939,-76.3647246158,42.0205546234,POINT (-76.3647246158 42.0205546234)
Hammondsport Central High School,Steuben,,13NR06455,-77.2274884374,42.4082731009,POINT (-77.2274884374 42.4082731009)
Rowena Memorial School,Greene,08/22/2002,02NR01924,-74.0195516013,42.1753633675,POINT (-74.0195516013 42.1753633675)
Common School District School 32,Delaware,03/27/2017,16NR00099,-75.2791420791,42.2058043278,POINT (-75.2791420791 42.2058043278)
Bruynswyck School No. 8,Ulster,11/02/2000,00NR01649,-74.2260104283,41.6596191788,POINT (-74.2260104283 41.6596191788)
Octagonal Schoolhouse,Essex,01/17/1973,90NR00464,-73.4011805001,44.3042663949,POINT (-73.4011805001 44.3042663949)
Coeymans School (Acton Civill Polytechnic Institute),Albany,12/29/1970,90NR02766,-73.7982068922,42.4727451239,POINT (-73.7982068922 42.4727451239)
Chemung District School No. 10,Chemung,05/21/2008,08NR05857,-76.715713777,42.028719491,POINT (-76.715713777 42.028719491)
North Lyndon Schoolhouse,Cattaraugus,09/15/2000,00NR01613,-78.3542614743,42.3310294205,POINT (-78.3542614743 42.3310294205)
Public School 17,Bronx,09/27/1984,90NR00062,-73.7843580461,40.8471215127,POINT (-73.7843580461 40.8471215127)
Verdoy School,Albany,03/09/1997,96NR01099,-73.7772184249,42.7327034861,POINT (-73.7772184249 42.7327034861)
District School No. 3 at Putnam Corners,Jefferson,09/06/1990,91NR00059,-76.2378239958,44.076330137,POINT (-76.2378239958 44.076330137)
Lee School,Schuyler,05/20/1998,98NR01324,-76.8405725542,42.3283148588,POINT (-76.8405725542 42.3283148588)
Clymer District School No.5,Chautauqua,08/29/1994,94NR00677,-79.5756597445,42.0532673664,POINT (-79.5756597445 42.0532673664)
Oak Street School,Oswego,07/03/2003,02NR05042,-76.4180448184,43.3120990483,POINT (-76.4180448184 43.3120990483)
Frankfort Hill District #10 School,Herkimer,06/23/2011,11NR06211,-75.1848031837,43.03414083,POINT (-75.1848031837 43.03414083)
Niagara Falls Schools Administration Building,Niagara,12/10/2014,14NR06583,-79.0552483513,43.0927104021,POINT (-79.0552483513 43.0927104021)
Goodrich School,Albany,09/22/2000,00NR01645,-73.7455841318,42.728569673,POINT (-73.7455841318 42.728569673)
Horace Mann School,Schenectady,11/24/2015,15NR00050,-73.9376919652,42.8033644412,POINT (-73.9376919652 42.8033644412)
Drum Hill High School,Westchester,12/31/1979,90NR02497,-73.9236998944,41.2880222526,POINT (-73.9236998944 41.2880222526)
District 10 School,Delaware,02/20/1998,98NR01310,-74.6752921637,42.1223895602,POINT (-74.6752921637 42.1223895602)
Public School 157,New York,12/10/1981,90NR00935,-73.9521333662,40.8118688123,POINT (-73.9521333662 40.8118688123)
Unadilla Forks School,Otsego,08/28/1998,98NR01390,-75.2365124312,42.8431467366,POINT (-75.2365124312 42.8431467366)
Willsboro School,Essex,03/31/2010,09NR06077,-73.3901038666,44.3647408653,POINT (-73.3901038666 44.3647408653)
East Otto Union School,Cattaraugus,09/15/2004,03NR05063,-78.7543191433,42.3909813732,POINT (-78.7543191433 42.3909813732)
District School No. 19,Jefferson,10/18/1989,90NR01136,-76.0308665894,43.9247279448,POINT (-76.0308665894 43.9247279448)
LaGrange District School No. 3,Dutchess,05/28/2013,13NR06437,-73.8056809625,41.6739379056,POINT (-73.8056809625 41.6739379056)
WATKINS GLEN HIGH SCHOOL,Schuyler,02/12/2015,14NR06597,-76.868670234,42.3776113035,POINT (-76.868670234 42.3776113035)
St. Rose de Lima Roman Catholic Church and School Complex,Erie,02/21/2017,15NR00013,-78.8394506753,42.9531047255,POINT (-78.8394506753 42.9531047255)
District Number 7 Schoolhouse,Tompkins,11/30/2004,04NR05221,-76.253110998,42.3042958056,POINT (-76.253110998 42.3042958056)
Vestal Central School,Broome,02/22/2010,09NR06079,-76.0511118985,42.0848134755,POINT (-76.0511118985 42.0848134755)
Public School 108,Kings,12/10/1981,90NR01345,-73.8843508373,40.6813030751,POINT (-73.8843508373 40.6813030751)
Marble Schoolhouse,Westchester,07/06/2005,04NR05399,-73.8111790141,40.9298035353,POINT (-73.8111790141 40.9298035353)
District School No. 1,Albany,05/20/1998,98NR01336,-73.7697190131,42.553039059,POINT (-73.7697190131 42.553039059)
Union Free School,Delaware,12/06/2004,04NR05246,-74.9976614087,42.0827484756,POINT (-74.9976614087 42.0827484756)
Talcottville Common School No. 2,Lewis,06/21/2016,16NR00007,-75.3680184998,43.5338038774,POINT (-75.3680184998 43.5338038774)
District School No. 3,Rensselaer,08/28/1998,98NR01369,-73.7068122728,42.5024765133,POINT (-73.7068122728 42.5024765133)
Buffalo Public School #78 (PS78),Erie,01/30/2020,18NR00085,-78.817751177,42.9318451353,POINT (-78.817751177 42.9318451353)
Dayton's Corners School,Monroe,07/05/2001,01NR01761,-77.5027939512,43.1818188283,POINT (-77.5027939512 43.1818188283)
Fosdick-Masten Park High School,Erie,06/30/1983,90NR01227,-78.8606115537,42.903043877,POINT (-78.8606115537 42.903043877)
Thorne Memorial School,Dutchess,12/06/1996,96NR01096,-73.689539806,41.7861737851,POINT (-73.689539806 41.7861737851)
Wallington Cobblestone Schoolhouse District 8,Wayne,03/17/1994,92NR00421,-77.0128370774,43.2232458998,POINT (-77.0128370774 43.2232458998)
Roe Cobblestone Schoolhouse,Wayne,09/17/2008,08NR05878,-76.7971876387,43.1900083557,POINT (-76.7971876387 43.1900083557)
"District No. 2 School, Caroline and Dryden",Tompkins,01/05/2005,04NR05259,-76.3498107046,42.3942902589,POINT (-76.3498107046 42.3942902589)
Schoolhouse #6,Albany,11/10/1982,90NR01665,-73.968405089,42.7042327344,POINT (-73.968405089 42.7042327344)
English Church and Schoolhouse,Rockland,11/23/1977,90NR02397,-74.0318075979,41.1502036394,POINT (-74.0318075979 41.1502036394)
Chelsea Grammar School,Dutchess,08/25/1987,90NR00360,-73.9675566617,41.5525823585,POINT (-73.9675566617 41.5525823585)
Waterloo High School,Seneca,05/20/2019,18NR00088,-76.8678644739,42.9048845206,POINT (-76.8678644739 42.9048845206)
East Nassau School,Rensselaer,05/23/1997,97NR01184,-73.5046482614,42.5095725,POINT (-73.5046482614 42.5095725)
Rosendale Common School,Schenectady,07/19/2010,09NR06074,-73.8597424836,42.7964460263,POINT (-73.8597424836 42.7964460263)
District School No. 11,Greene,08/10/1995,95NR00843,-73.8802716631,42.2308852954,POINT (-73.8802716631 42.2308852954)
Hammondsport Union Free School,Steuben,05/15/2008,07NR05824,-77.2232164129,42.4076258017,POINT (-77.2232164129 42.4076258017)
Public School 24 (aka PS 59),Erie,12/13/2016,15NR00073,-78.8389291737,42.9033376404,POINT (-78.8389291737 42.9033376404)
Sherburne High School,Chenango,11/03/1988,90NR00169,-75.4935283832,42.6757533415,POINT (-75.4935283832 42.6757533415)
Modern Times School,Suffolk,12/23/1994,94NR00728,-73.253836992,40.7764546837,POINT (-73.253836992 40.7764546837)
"Lafevre, John A., House and School",Ulster,11/16/1989,95NR00835,-74.1198354107,41.6968534252,POINT (-74.1198354107 41.6968534252)
Van Cortlandtville School (Common District School No. 10),Westchester,04/07/1989,90NR02433,-73.8999084381,41.3124691498,POINT (-73.8999084381 41.3124691498)
Former Depew High School,Erie,08/23/2016,15NR00025,-78.6919946613,42.903397422,POINT (-78.6919946613 42.903397422)
Friends Meetinghouse and School,Kings,11/04/1982,90NR01330,-73.9893166579,40.6899765478,POINT (-73.9893166579 40.6899765478)
"Woodlawn (Gordon, Malcolm, School)",Putnam,11/23/1982,90NR02379,-73.9375404473,41.3914506194,POINT (-73.9375404473 41.3914506194)
Smyrna Elementary School,Chenango,12/16/1996,96NR01101,-75.569238442,42.6859169112,POINT (-75.569238442 42.6859169112)
District No. 6 Schoolhouse,Rensselaer,07/03/2008,08NR05845,-73.5747334787,42.7511737017,POINT (-73.5747334787 42.7511737017)
Oran District No. 22 Schoolhouse,Onondaga,08/06/1998,98NR01362,-75.9343655964,42.9785985194,POINT (-75.9343655964 42.9785985194)
Ramapo Central School District,Rockland,08/05/2015,15NR00034,-74.1701439062,41.1249050757,POINT (-74.1701439062 41.1249050757)
Weston Schoolhouse,Schuyler,10/08/1998,98NR01326,-77.0768504963,42.4220062757,POINT (-77.0768504963 42.4220062757)
Camp Hill School (Pomona Village Hall),Rockland,08/08/2019,19NR00010,-74.0550144899,41.1826495092,POINT (-74.0550144899 41.1826495092)
LeRoy House/Union Free School,Genesee,11/07/1997,97NR01278,-77.9857835814,42.9792129151,POINT (-77.9857835814 42.9792129151)
Attlebury School House,Dutchess,05/16/2016,15NR00114,-73.668031489,41.9192854566,POINT (-73.668031489 41.9192854566)
Lincoln School,Steuben,11/17/2015,15NR00075,-77.6617907609,42.3160902073,POINT (-77.6617907609 42.3160902073)
Washington School,Westchester,02/12/1987,90NR02507,-73.8581460202,41.165693395,POINT (-73.8581460202 41.165693395)
Town of Niagara District School No. 2,Niagara,02/09/2005,04NR05293,-78.9507126764,43.1215968022,POINT (-78.9507126764 43.1215968022)
Main Street School,Nassau,02/10/1983,90NR01728,-73.6964504081,40.8307476671,POINT (-73.6964504081 40.8307476671)
District 4 School,Chenango,04/21/2004,03NR05142,-75.6391871558,42.3147086441,POINT (-75.6391871558 42.3147086441)
